[{"id": "3ZgIHvi0Qjba_VHBC8cGKw", "alias": "chuck-s-fish-tallahassee", "name": "Chuck\u2019s Fish", "image_url": "https://s3-media3.fl.yelpcdn.com/bphoto/kgJ24lAXEMTndqisJ8_4IQ/o.jpg", "is_closed": false, "url": "https://www.yelp.com/biz/chuck-s-fish-tallahassee?adjust_creative=-ZH-RElVG6q0GGnFOJ1U-w&utm_campaign=yelp_api_v3&utm_medium=api_v3_business_search&utm_source=-ZH-RElVG6q0GGnFOJ1U-w", "review_count": 39, "categories": [{"alias": "sushi", "title": "Sushi Bars"}, {"alias": "seafood", "title": "Seafood"}], "rating": 4.0, "coordinates": {"latitude": 30.4408853, "longitude": -84.279891}, "transactions": [], "location": {"address1": "224 E College Ave", "address2": "", "address3": null, "city": "Tallahassee", "zip_code": "32301", "country": "US", "state": "FL", "display_address": ["224 E College Ave", "Tallahassee, FL 32301"]}, "phone": "+18505977506", "display_phone": "(850) 597-7506", "distance": 99.2234646683411}, {"id": "taxvnCs9oFC1VQJ86TW9Bg", "alias": "straw-hat-poke-tallahassee", "name": "Straw Hat Poke", "image_url": "https://s3-media1.fl.yelpcdn.com/bphoto/4O6pcEBgu0fRmNalvTSxZg/o.jpg", "is_closed": false, "url": "https://www.yelp.com/biz/straw-hat-poke-tallahassee?adjust_creative=-ZH-RElVG6q0GGnFOJ1U-w&utm_campaign=yelp_api_v3&utm_medium=api_v3_business_search&utm_source=-ZH-RElVG6q0GGnFOJ1U-w", "review_count": 20, "categories": [{"alias": "bubbletea", "title": "Bubble Tea"}, {"alias": "poke", "title": "Poke"}], "rating": 4.5, "coordinates": {"latitude": 30.43638, "longitude": -84.29203}, "transactions": ["delivery", "pickup"], "location": {"address1": "631 W Madison St", "address2": "Ste 135", "address3": "", "city": "Tallahassee", "zip_code": "32304", "country": "US", "state": "FL", "display_address": ["631 W Madison St", "Ste 135", "Tallahassee, FL 32304"]}, "phone": "+18502222012", "display_phone": "(850) 222-2012", "distance": 1252.0076678756552}, {"id": "bxQ8E1S0-2721rlxOoB54w", "alias": "roboto-tokyo-grill-tallahassee-2", "name": "Roboto Tokyo Grill", "image_url": "https://s3-media2.fl.yelpcdn.com/bphoto/snMiO-50tLMsk9BVysjv4w/o.jpg", "is_closed": false, "url": "https://www.yelp.com/biz/roboto-tokyo-grill-tallahassee-2?adjust_creative=-ZH-RElVG6q0GGnFOJ1U-w&utm_campaign=yelp_api_v3&utm_medium=api_v3_business_search&utm_source=-ZH-RElVG6q0GGnFOJ1U-w", "review_count": 1, "categories": [{"alias": "japanese", "title": "Japanese"}, {"alias": "sushi", "title": "Sushi Bars"}, {"alias": "korean", "title": "Korean"}], "rating": 5.0, "coordinates": {"latitude": 30.43459315789246, "longitude": -84.2894104}, "transactions": ["delivery", "pickup"], "location": {"address1": "825 Railroad Ave", "address2": "", "address3": null, "city": "Tallahassee", "zip_code": "32310", "country": "US", "state": "FL", "display_address": ["825 Railroad Ave", "Tallahassee, FL 32310"]}, "phone": "+18509992700", "display_phone": "(850) 999-2700", "distance": 1084.308302666723}, {"id": "-GJBOfd2izzd1359hBDDRQ", "alias": "andrews-downtown-tallahassee", "name": "Andrew's Downtown", "image_url": "https://s3-media4.fl.yelpcdn.com/bphoto/UvZS956ULQuySv53tlA-MQ/o.jpg", "is_closed": false, "url": "https://www.yelp.com/biz/andrews-downtown-tallahassee?adjust_creative=-ZH-RElVG6q0GGnFOJ1U-w&utm_campaign=yelp_api_v3&utm_medium=api_v3_business_search&utm_source=-ZH-RElVG6q0GGnFOJ1U-w", "review_count": 186, "categories": [{"alias": "tradamerican", "title": "American (Traditional)"}, {"alias": "buffets", "title": "Buffets"}, {"alias": "catering", "title": "Caterers"}], "rating": 3.5, "coordinates": {"latitude": 30.44018, "longitude": -84.28231}, "transactions": ["delivery"], "price": "$$", "location": {"address1": "228 S Adams St", "address2": "", "address3": "", "city": "Tallahassee", "zip_code": "32301", "country": "US", "state": "FL", "display_address": ["228 S Adams St", "Tallahassee, FL 32301"]}, "phone": "+18502223444", "display_phone": "(850) 222-3444", "distance": 222.80995384867538}, {"id": "dfkdeh_Y2e8dUdHFg9vIKw", "alias": "greenwise-market-tallahassee", "name": "GreenWise Market", "image_url": "https://s3-media1.fl.yelpcdn.com/bphoto/8KmFSHrP1kdFU9eoTS6JAw/o.jpg", "is_closed": false, "url": "https://www.yelp.com/biz/greenwise-market-tallahassee?adjust_creative=-ZH-RElVG6q0GGnFOJ1U-w&utm_campaign=yelp_api_v3&utm_medium=api_v3_business_search&utm_source=-ZH-RElVG6q0GGnFOJ1U-w", "review_count": 43, "categories": [{"alias": "grocery", "title": "Grocery"}], "rating": 4.5, "coordinates": {"latitude": 30.43487, "longitude": -84.29161}, "transactions": [], "price": "$$", "location": {"address1": "625 W Gaines St", "address2": "", "address3": null, "city": "Tallahassee", "zip_code": "32304", "country": "US", "state": "FL", "display_address": ["625 W Gaines St", "Tallahassee, FL 32304"]}, "phone": "+18505771915", "display_phone": "(850) 577-1915", "distance": 1256.333834976799}, {"id": "3ZgIHvi0Qjba_VHBC8cGKw", "alias": "chuck-s-fish-tallahassee", "name": "Chuck\u2019s Fish", "image_url": "https://s3-media3.fl.yelpcdn.com/bphoto/kgJ24lAXEMTndqisJ8_4IQ/o.jpg", "is_closed": false, "url": "https://www.yelp.com/biz/chuck-s-fish-tallahassee?adjust_creative=-ZH-RElVG6q0GGnFOJ1U-w&utm_campaign=yelp_api_v3&utm_medium=api_v3_business_search&utm_source=-ZH-RElVG6q0GGnFOJ1U-w", "review_count": 39, "categories": [{"alias": "sushi", "title": "Sushi Bars"}, {"alias": "seafood", "title": "Seafood"}], "rating": 4.0, "coordinates": {"latitude": 30.4408853, "longitude": -84.279891}, "transactions": [], "location": {"address1": "224 E College Ave", "address2": "", "address3": null, "city": "Tallahassee", "zip_code": "32301", "country": "US", "state": "FL", "display_address": ["224 E College Ave", "Tallahassee, FL 32301"]}, "phone": "+18505977506", "display_phone": "(850) 597-7506", "distance": 99.2234646683411}, {"id": "taxvnCs9oFC1VQJ86TW9Bg", "alias": "straw-hat-poke-tallahassee", "name": "Straw Hat Poke", "image_url": "https://s3-media1.fl.yelpcdn.com/bphoto/4O6pcEBgu0fRmNalvTSxZg/o.jpg", "is_closed": false, "url": "https://www.yelp.com/biz/straw-hat-poke-tallahassee?adjust_creative=-ZH-RElVG6q0GGnFOJ1U-w&utm_campaign=yelp_api_v3&utm_medium=api_v3_business_search&utm_source=-ZH-RElVG6q0GGnFOJ1U-w", "review_count": 20, "categories": [{"alias": "bubbletea", "title": "Bubble Tea"}, {"alias": "poke", "title": "Poke"}], "rating": 4.5, "coordinates": {"latitude": 30.43638, "longitude": -84.29203}, "transactions": ["delivery", "pickup"], "location": {"address1": "631 W Madison St", "address2": "Ste 135", "address3": "", "city": "Tallahassee", "zip_code": "32304", "country": "US", "state": "FL", "display_address": ["631 W Madison St", "Ste 135", "Tallahassee, FL 32304"]}, "phone": "+18502222012", "display_phone": "(850) 222-2012", "distance": 1252.0076678756552}, {"id": "bxQ8E1S0-2721rlxOoB54w", "alias": "roboto-tokyo-grill-tallahassee-2", "name": "Roboto Tokyo Grill", "image_url": "https://s3-media2.fl.yelpcdn.com/bphoto/snMiO-50tLMsk9BVysjv4w/o.jpg", "is_closed": false, "url": "https://www.yelp.com/biz/roboto-tokyo-grill-tallahassee-2?adjust_creative=-ZH-RElVG6q0GGnFOJ1U-w&utm_campaign=yelp_api_v3&utm_medium=api_v3_business_search&utm_source=-ZH-RElVG6q0GGnFOJ1U-w", "review_count": 1, "categories": [{"alias": "japanese", "title": "Japanese"}, {"alias": "sushi", "title": "Sushi Bars"}, {"alias": "korean", "title": "Korean"}], "rating": 5.0, "coordinates": {"latitude": 30.43459315789246, "longitude": -84.2894104}, "transactions": ["delivery", "pickup"], "location": {"address1": "825 Railroad Ave", "address2": "", "address3": null, "city": "Tallahassee", "zip_code": "32310", "country": "US", "state": "FL", "display_address": ["825 Railroad Ave", "Tallahassee, FL 32310"]}, "phone": "+18509992700", "display_phone": "(850) 999-2700", "distance": 1084.308302666723}, {"id": "-GJBOfd2izzd1359hBDDRQ", "alias": "andrews-downtown-tallahassee", "name": "Andrew's Downtown", "image_url": "https://s3-media4.fl.yelpcdn.com/bphoto/UvZS956ULQuySv53tlA-MQ/o.jpg", "is_closed": false, "url": "https://www.yelp.com/biz/andrews-downtown-tallahassee?adjust_creative=-ZH-RElVG6q0GGnFOJ1U-w&utm_campaign=yelp_api_v3&utm_medium=api_v3_business_search&utm_source=-ZH-RElVG6q0GGnFOJ1U-w", "review_count": 186, "categories": [{"alias": "tradamerican", "title": "American (Traditional)"}, {"alias": "buffets", "title": "Buffets"}, {"alias": "catering", "title": "Caterers"}], "rating": 3.5, "coordinates": {"latitude": 30.44018, "longitude": -84.28231}, "transactions": ["delivery"], "price": "$$", "location": {"address1": "228 S Adams St", "address2": "", "address3": "", "city": "Tallahassee", "zip_code": "32301", "country": "US", "state": "FL", "display_address": ["228 S Adams St", "Tallahassee, FL 32301"]}, "phone": "+18502223444", "display_phone": "(850) 222-3444", "distance": 222.80995384867538}, {"id": "dfkdeh_Y2e8dUdHFg9vIKw", "alias": "greenwise-market-tallahassee", "name": "GreenWise Market", "image_url": "https://s3-media1.fl.yelpcdn.com/bphoto/8KmFSHrP1kdFU9eoTS6JAw/o.jpg", "is_closed": false, "url": "https://www.yelp.com/biz/greenwise-market-tallahassee?adjust_creative=-ZH-RElVG6q0GGnFOJ1U-w&utm_campaign=yelp_api_v3&utm_medium=api_v3_business_search&utm_source=-ZH-RElVG6q0GGnFOJ1U-w", "review_count": 43, "categories": [{"alias": "grocery", "title": "Grocery"}], "rating": 4.5, "coordinates": {"latitude": 30.43487, "longitude": -84.29161}, "transactions": [], "price": "$$", "location": {"address1": "625 W Gaines St", "address2": "", "address3": null, "city": "Tallahassee", "zip_code": "32304", "country": "US", "state": "FL", "display_address": ["625 W Gaines St", "Tallahassee, FL 32304"]}, "phone": "+18505771915", "display_phone": "(850) 577-1915", "distance": 1256.333834976799}]